{
  "title": "広島・宮島",
  "subtitle": "2泊3日 満喫旅行プラン",
  "note": "夕食外食アレンジ版",
  "basicInfo": [
    {
      "icon": "🚗",
      "label": "移動手段",
      "text": "全日程レンタカー（広島空港での発着）"
    },
    {
      "icon": "🏨",
      "label": "部屋・宿泊",
      "text": "大人2名・個室2部屋を確保。1泊目：広島市内中心部（ヒルトン広島、グランヴィア広島サウスゲートなど）／2泊目：ホテル宮島別荘（宮島島内）"
    },
    {
      "icon": "🧳",
      "label": "荷物ルール",
      "text": "大きなスーツケースは常に「車のトランク」に入れっぱなし。2日目の宮島へは、1泊分の着替えを入れたサブバッグだけでフェリーに乗る。"
    }
  ],
  "days": [
    {
      "id": 1,
      "label": "1日目",
      "theme": "広島市内歴史巡りと街中お洒落イタリアン",
      "events": [
        {
          "time": "10:00",
          "icon": "🛬",
          "title": "広島空港に到着",
          "description": "",
          "spot": { "name": "広島空港", "lat": 34.4361, "lng": 132.9195 }
        },
        {
          "time": "10:30",
          "icon": "🚗",
          "title": "レンタカー手続き・出発",
          "description": "空港から市内へ移動、車で約50分。",
          "spot": null
        },
        {
          "time": "11:30",
          "icon": "🥢",
          "title": "市内到着・お好み焼きランチ",
          "description": "「お好み村」や、焼き手の技術が光る駅周辺の名店で本場のお好み焼きを堪能。",
          "spot": { "name": "お好み村", "lat": 34.3917, "lng": 132.4632 }
        },
        {
          "time": "13:00",
          "icon": "🕊️",
          "title": "平和記念公園・原爆ドームを見学",
          "description": "所要：約2.5時間。資料館の展示や遺品をじっくり巡り、歴史を深く学びます。",
          "spot": { "name": "平和記念公園・原爆ドーム", "lat": 34.3955, "lng": 132.4536 }
        },
        {
          "time": "15:45",
          "icon": "🏯",
          "title": "広島城 ＆ 縮景園の散策",
          "description": "歴史博物館になっている広島城天守閣からの展望や、四季折々の美しい大名庭園を散歩。",
          "spot": { "name": "広島城", "lat": 34.4026, "lng": 132.4594 }
        },
        {
          "time": "17:45",
          "icon": "🏨",
          "title": "1泊目の市内ホテルへチェックイン",
          "description": "レンタカーをホテルの駐車場へ停め、身軽な格好に着替えます。",
          "spot": { "name": "広島市内ホテル（ヒルトン広島など）", "lat": 34.3866, "lng": 132.4682 }
        },
        {
          "time": "19:00",
          "icon": "🍽️",
          "title": "街中の人気イタリアン「MORETHAN」などでディナー（外食）",
          "description": "広島中心部（大手町）にある、海外のようなスタイリッシュでお洒落な空間のイタリアンへ。瀬戸内の新鮮な食材を活かした絶品パスタやピザを、落ち着いた雰囲気の中でゆっくり味わいます。",
          "spot": { "name": "MORETHAN（大手町）", "lat": 34.3898, "lng": 132.4517 }
        }
      ]
    },
    {
      "id": 2,
      "label": "2日目",
      "theme": "呉の潜水艦ドライブ ＆ 宮島幻想ライトアップ",
      "events": [
        {
          "time": "09:00",
          "icon": "🏨",
          "title": "ホテルチェックアウト",
          "description": "スーツケースはすべて車のトランクへ戻してロック。再び手ぶら状態に。",
          "spot": null
        },
        {
          "time": "09:40",
          "icon": "⚓",
          "title": "呉エリア観光",
          "description": "市内から車で約40分。「大和ミュージアム」で海軍の歴史を学び、本物の潜水艦を間近に見られる呉湾クルーズを体験。",
          "spot": { "name": "大和ミュージアム", "lat": 34.2415, "lng": 132.5557 }
        },
        {
          "time": "11:30",
          "icon": "☕",
          "title": "港町珈琲店でランチ",
          "description": "窓から潜水艦を眺められる抜群のロケーションで、名物カレーなどを堪能。",
          "spot": { "name": "港町珈琲店", "lat": 34.2338, "lng": 132.5654 }
        },
        {
          "time": "12:30",
          "icon": "🚗",
          "title": "真紅の「音戸大橋」をドライブ ➔ 宮島口へ移動",
          "description": "車で約1時間。",
          "spot": { "name": "音戸大橋", "lat": 34.1935, "lng": 132.5385 }
        },
        {
          "time": "14:00",
          "icon": "🅿️",
          "title": "宮島口（本州側）の駐車場に車を停める",
          "description": "スーツケースはトランクに置いたまま、「1泊分の着替えを入れたサブバッグ」だけを取り出す。",
          "spot": { "name": "宮島口駐車場", "lat": 34.3122, "lng": 132.3029 }
        },
        {
          "time": "14:30",
          "icon": "🚢",
          "title": "フェリーで宮島島内へ",
          "description": "約10分の船旅。",
          "spot": null
        },
        {
          "time": "15:00",
          "icon": "🏨",
          "title": "ホテル宮島別荘へチェックイン ＆ 表参道商店街散策",
          "description": "荷物を宿に置いたら、焼き牡蠣の食べ歩きやお土産探しへ。",
          "spot": { "name": "ホテル宮島別荘", "lat": 34.3020, "lng": 132.3225 }
        },
        {
          "time": "18:00",
          "icon": "🍷",
          "title": "ホテル宮島別荘でディナービュッフェ",
          "description": "アルコールを含むフリードリンク（飲み放題）と一緒に、贅沢な欧風料理ブッフェを満喫。",
          "spot": null
        },
        {
          "time": "20:00",
          "icon": "🌙",
          "title": "静まり返った夜の厳島神社ライトアップ散策",
          "description": "島内宿泊者だけが味わえる、幻想的で静かな大鳥居の景色をゆっくり堪能。",
          "spot": { "name": "厳島神社（ライトアップ）", "lat": 34.2960, "lng": 132.3198 }
        }
      ]
    },
    {
      "id": 3,
      "label": "3日目",
      "theme": "早朝参拝と弥山絶景 ➔ 空港グルメで締めくくり",
      "events": [
        {
          "time": "06:30",
          "icon": "⛩️",
          "title": "朝の澄んだ空気の中で厳島神社を早朝参拝",
          "description": "観光客がほとんどいない静かな本殿や回廊を贅沢に巡ります。",
          "spot": { "name": "厳島神社", "lat": 34.2960, "lng": 132.3198 }
        },
        {
          "time": "08:00",
          "icon": "🍳",
          "title": "ホテルで朝食・チェックアウト",
          "description": "",
          "spot": null
        },
        {
          "time": "09:15",
          "icon": "🚡",
          "title": "弥山（みせん）ロープウエーで絶景空中散歩",
          "description": "パワースポット・弥山へ。瀬戸内海の素晴らしい多島美を一望。",
          "spot": { "name": "宮島ロープウエー 紅葉谷駅", "lat": 34.2932, "lng": 132.3255 }
        },
        {
          "time": "12:00",
          "icon": "🥢",
          "title": "表参道商店街で「あなごめし」ランチ",
          "description": "宮島名物のあなごめしや最後の食べ歩き、しゃもじ等の縁起物のお土産を購入。",
          "spot": { "name": "表参道商店街", "lat": 34.2975, "lng": 132.3207 }
        },
        {
          "time": "13:30",
          "icon": "🚢",
          "title": "フェリーで本州側（宮島口）へ戻る",
          "description": "",
          "spot": null
        },
        {
          "time": "14:00",
          "icon": "🚗",
          "title": "宮島口の駐車場で車を回収 ➔ 五日市へドライブ",
          "description": "約20分。※道中、名店「あなごめし うえの」でお土産用のお弁当（要事前予約）をピックアップするのもおすすめ。",
          "spot": { "name": "あなごめし うえの", "lat": 34.3125, "lng": 132.3022 }
        },
        {
          "time": "14:30",
          "icon": "🍰",
          "title": "グラスホッパーカフェ（佐伯区五日市）で休憩",
          "description": "自然に囲まれた隠れ家カフェで美味しいスイーツやドリンクを楽しみながら、旅の思い出を振り返ります。",
          "spot": { "name": "グラスホッパーカフェ", "lat": 34.4293, "lng": 132.3311 }
        },
        {
          "time": "16:30",
          "icon": "🚗",
          "title": "広島空港へ向けて出発",
          "description": "五日市から山陽道経由で約1時間。",
          "spot": null
        },
        {
          "time": "18:00",
          "icon": "⛽",
          "title": "空港近くでガソリン給油・レンタカー返却",
          "description": "",
          "spot": null
        },
        {
          "time": "18:30",
          "icon": "🧳",
          "title": "広島空港に到着・チェックイン",
          "description": "トランクからすべての荷物を回収し、飛行機の搭乗手続きを済ませて身軽になります。",
          "spot": { "name": "広島空港", "lat": 34.4361, "lng": 132.9195 }
        },
        {
          "time": "19:00",
          "icon": "🥢",
          "title": "広島空港内で旅の締めくくりディナー",
          "description": "3階のレストランフロアへ。「みっちゃん」や「五エ門」でお好み焼き、または「OYSTER FARM」で最後の広島牡蠣を堪能！※19:30頃にラストオーダーとなるお店が多いため、到着後スムーズに向かうのがコツです。",
          "spot": null
        },
        {
          "time": "19:40",
          "icon": "🛍️",
          "title": "お土産の最終チェック・搭乗口へ",
          "description": "",
          "spot": null
        },
        {
          "time": "20:00",
          "icon": "🛫",
          "title": "広島空港を出発",
          "description": "",
          "spot": null
        }
      ]
    }
  ]
}
